City_ID,City,Country,Date,Lat,Lng,Max Temp,Humidity,Cloudiness,Wind Speed,Current Description,Rain inches (last 3 hours),Snow inches (last 3 hours)
0,Tessalit,ML,2019-11-04 08:02:54,20.2,1.01,88.07,14,0,11.21,clear sky,0,0
1,Atuona,PF,2019-11-04 08:02:54,-9.8,-139.03,80.33,76,0,18.99,clear sky,0,0
2,Mataura,NZ,2019-11-04 08:02:54,-46.19,168.86,66.0,50,100,4.0,overcast clouds,0,0
3,Ulladulla,AU,2019-11-04 08:02:55,-35.36,150.48,66.2,77,75,10.29,broken clouds,0,0
4,Ocos,GT,2019-11-04 08:02:55,14.51,-92.19,73.4,94,20,2.24,few clouds,0,0
5,Kapaa,US,2019-11-04 08:02:55,22.08,-159.32,77.0,78,90,3.06,overcast clouds,0,0
6,Arraial Do Cabo,BR,2019-11-04 08:02:55,-22.97,-42.02,75.22,86,99,18.95,overcast clouds,0,0
7,Phek,IN,2019-11-04 08:02:56,25.7,94.46,71.29,67,6,1.99,light rain,1.25,0
8,Lebu,ET,2019-11-04 08:02:56,8.96,38.73,66.74,52,87,12.28,overcast clouds,0,0
9,Saint-Philippe,CA,2019-11-04 08:02:56,45.36,-73.48,37.4,78,90,12.75,overcast clouds,0,0
10,Jamestown,AU,2019-11-04 08:02:56,-33.21,138.6,54.95,51,0,14.9,clear sky,0,0
11,Pitimbu,BR,2019-11-04 08:02:56,-7.47,-34.81,73.4,94,75,4.7,broken clouds,0,0
12,Adrar,DZ,2019-11-04 08:02:57,27.87,-0.29,62.6,42,0,4.7,clear sky,0,0
13,Avarua,CK,2019-11-04 08:02:57,-21.21,-159.78,69.8,64,100,4.7,overcast clouds,0,0
14,Port Lincoln,AU,2019-11-04 08:02:57,-34.72,135.86,56.66,64,6,11.59,clear sky,0,0
15,Cape Town,ZA,2019-11-04 08:02:07,-33.93,18.42,73.99,49,23,8.05,few clouds,0,0
16,Galle,GN,2019-11-04 08:02:58,10.08,-12.83,77.81,73,70,0.49,broken clouds,0,0
17,New Norfolk,AU,2019-11-04 08:02:58,-42.78,147.06,55.0,58,75,12.75,broken clouds,0,0
18,Cabo San Lucas,MX,2019-11-04 08:02:58,22.89,-109.91,73.99,79,50,1.88,scattered clouds,0,0
19,Ushuaia,AR,2019-11-04 08:01:01,-54.81,-68.31,37.4,86,90,29.97,light intensity drizzle,0,0
20,Bitung,ID,2019-11-04 08:02:59,1.44,125.19,86.0,70,40,2.24,scattered clouds,0,0
21,Noumea,NC,2019-11-04 08:02:59,-22.28,166.46,77.0,47,0,9.17,clear sky,0,0
22,Touros,BR,2019-11-04 08:02:59,-5.2,-35.46,73.4,88,40,3.36,scattered clouds,0,0
23,Oranjemund,ZA,2019-11-04 08:02:59,-28.55,16.43,75.49,41,0,9.98,clear sky,0,0
24,Rikitea,PF,2019-11-04 08:02:59,-23.12,-134.97,74.26,89,100,14.9,overcast clouds,0,0
25,Shumikha,RU,2019-11-04 08:03:00,55.23,63.28,22.41,83,0,2.8,clear sky,0,0
26,Diego De Almagro,CL,2019-11-04 08:03:00,-26.39,-70.05,48.15,76,0,0.36,clear sky,0,0
27,Ilulissat,GL,2019-11-04 08:03:00,69.22,-51.1,24.8,45,60,4.7,broken clouds,0,0
28,Mbanza-Ngungu,CD,2019-11-04 08:03:00,-5.25,14.87,73.92,91,100,3.98,light rain,0.19,0
29,Busselton,AU,2019-11-04 08:02:05,-33.64,115.35,73.0,35,0,11.5,clear sky,0,0
30,Hithadhoo,MV,2019-11-04 08:03:01,-0.6,73.08,83.25,65,79,3.91,broken clouds,0,0
31,Barrow,AR,2019-11-04 08:03:01,-38.31,-60.23,60.91,59,0,19.51,clear sky,0,0
32,Butaritari,KI,2019-11-04 08:03:01,3.07,172.79,83.88,77,27,16.2,scattered clouds,0,0
33,Albany,US,2019-11-04 07:59:31,42.65,-73.75,34.0,86,75,1.57,broken clouds,0,0
34,Krasnoarmeysk,RU,2019-11-04 08:03:02,56.12,38.15,45.0,93,90,13.42,overcast clouds,0,0
35,Labuhan,ID,2019-11-04 08:03:02,-2.54,115.51,88.23,54,92,2.26,overcast clouds,0,0
36,Kahului,US,2019-11-04 08:03:02,20.89,-156.47,75.2,73,1,8.05,clear sky,0,0
37,Buala,SB,2019-11-04 08:03:02,-8.15,159.59,79.88,81,89,4.03,light rain,0.38,0
38,Nizhniy Tsasuchey,RU,2019-11-04 08:03:03,50.52,115.13,26.26,45,0,13.94,clear sky,0,0
39,Punta Arenas,CL,2019-11-04 08:03:03,-53.16,-70.91,39.2,86,75,35.57,light intensity shower rain,0,0
40,Port Alfred,ZA,2019-11-04 08:03:03,-33.59,26.89,69.01,73,20,1.01,few clouds,0,0
41,Chuy,UY,2019-11-04 08:03:04,-33.69,-53.46,57.97,90,23,7.18,few clouds,0,0
42,Puerto Del Rosario,ES,2019-11-04 08:03:04,28.5,-13.86,69.8,83,75,9.17,broken clouds,0,0
43,Cambuga,PH,2019-11-04 08:03:04,13.62,122.45,80.8,81,0,8.88,clear sky,0,0
44,Nome,US,2019-11-04 08:03:04,30.04,-94.42,53.6,87,1,3.36,clear sky,0,0
45,Port Keats,AU,2019-11-04 08:03:04,-14.25,129.55,86.07,64,25,11.92,scattered clouds,0,0
46,Faanui,PF,2019-11-04 08:03:05,-16.48,-151.75,79.09,84,50,11.45,moderate rain,3.31,0
47,Qaanaaq,GL,2019-11-04 08:03:05,77.48,-69.36,15.55,73,100,13.11,overcast clouds,0,0
48,Vaini,IN,2019-11-04 08:03:05,15.34,74.49,84.2,58,40,6.93,scattered clouds,0,0
49,Avera,US,2019-11-04 08:03:05,33.19,-82.53,46.4,93,1,5.03,clear sky,0,0
50,Ngunguru,NZ,2019-11-04 08:03:06,-35.62,174.5,64.0,76,64,4.36,broken clouds,0,0
51,Saint Anthony,US,2019-11-04 08:03:06,43.97,-111.68,33.8,73,90,2.35,overcast clouds,0,0
52,Alta Floresta,BR,2019-11-04 08:03:06,-9.87,-56.08,72.23,83,68,2.66,broken clouds,0,0
53,Cap Malheureux,MU,2019-11-04 08:03:07,-19.98,57.61,80.6,69,40,18.34,scattered clouds,0,0
54,Blackfoot,US,2019-11-04 08:03:07,43.19,-112.35,36.0,47,1,6.93,clear sky,0,0
55,Mehamn,NO,2019-11-04 08:03:07,71.03,27.85,33.8,85,75,28.86,broken clouds,0,0
56,Tiksi,RU,2019-11-04 08:03:08,71.64,128.87,1.4,88,97,5.19,overcast clouds,0,0
57,East London,ZA,2019-11-04 08:03:08,-33.02,27.91,68.0,64,75,8.05,broken clouds,0,0
58,Mar Del Plata,AR,2019-11-04 08:03:08,-46.43,-67.52,48.58,51,0,28.41,clear sky,0,0
59,Port Lavaca,US,2019-11-04 08:03:09,28.61,-96.63,60.01,87,40,3.36,scattered clouds,0,0
60,Norman Wells,CA,2019-11-04 08:03:09,65.28,-126.83,12.2,92,90,2.24,light snow,0,0
61,Colwyn Bay,GB,2019-11-04 08:02:31,53.29,-3.71,48.2,87,100,2.24,light rain,2.31,0
62,Aksarka,RU,2019-11-04 08:03:09,66.56,67.8,8.89,92,91,16.08,overcast clouds,0,0
63,Khatanga,RU,2019-11-04 08:03:10,71.98,102.47,-8.85,96,100,11.41,light snow,0,0.13
64,Lagoa,PT,2019-11-04 08:03:11,37.14,-8.45,64.0,93,40,6.93,scattered clouds,0,0
65,Porbandar,IN,2019-11-04 08:03:11,21.64,69.61,89.6,59,40,6.93,scattered clouds,0,0
66,Tuktoyaktuk,CA,2019-11-04 08:03:11,69.44,-133.03,23.14,93,100,10.51,light snow,0,0.5
67,Bluff,AU,2019-11-04 08:03:12,-23.58,149.07,81.37,48,16,3.87,few clouds,0,0
68,Puerto Ayora,EC,2019-11-04 08:03:12,-0.74,-90.35,69.01,89,60,5.99,broken clouds,0,0
69,Pueblo,US,2019-11-04 07:59:01,38.25,-104.61,39.2,74,1,8.05,clear sky,0,0
70,Wawa,NG,2019-11-04 08:03:12,9.9,4.41,85.59,60,97,0.51,overcast clouds,0,0
71,Yellowknife,CA,2019-11-04 08:03:12,62.45,-114.38,10.4,85,90,5.82,light snow,0,0
72,Provideniya,RU,2019-11-04 08:03:13,64.42,-173.23,17.67,86,0,1.43,clear sky,0,0
73,Bredasdorp,ZA,2019-11-04 08:03:13,-34.53,20.04,71.01,62,8,11.99,clear sky,0,0
74,Pevek,RU,2019-11-04 08:03:13,69.7,170.27,13.48,79,22,16.67,few clouds,0,0
75,Khorinsk,RU,2019-11-04 08:03:13,52.16,109.78,21.61,49,0,7.14,clear sky,0,0
76,Abu Dhabi,AE,2019-11-04 08:03:01,24.47,54.37,86.0,55,0,6.93,clear sky,0,0
77,San Ramon,NI,2019-11-04 08:03:14,12.92,-85.84,63.93,98,18,4.7,few clouds,0,0
78,Yaan,NG,2019-11-04 08:03:14,7.38,8.57,84.94,69,27,2.86,scattered clouds,0,0
79,Bhattiprolu,IN,2019-11-04 08:03:14,16.1,80.78,91.4,59,20,8.05,haze,0,0
80,Dikson,RU,2019-11-04 08:03:15,73.51,80.55,12.65,92,100,20.56,light snow,0,0.88
81,Namibe,AO,2019-11-04 08:03:15,-15.19,12.15,77.0,73,90,5.66,overcast clouds,0,0
82,Castro,CL,2019-11-04 08:03:15,-42.48,-73.76,42.8,93,40,6.93,scattered clouds,0,0
83,Belyy Yar,RU,2019-11-04 08:03:15,53.6,91.39,28.4,68,100,2.24,overcast clouds,0,0
84,Tignere,CM,2019-11-04 08:03:16,7.37,12.65,84.0,55,89,1.77,overcast clouds,0,0
85,Hobart,AU,2019-11-04 08:00:10,-42.88,147.33,55.0,58,75,12.75,broken clouds,0,0
86,Katobu,ID,2019-11-04 08:03:16,-4.94,122.53,86.85,58,78,3.24,light rain,0.5,0
87,Hilo,US,2019-11-04 08:03:16,19.71,-155.08,78.8,74,90,5.03,overcast clouds,0,0
88,Tuatapere,NZ,2019-11-04 08:03:16,-46.13,167.69,66.0,50,100,4.0,light rain,0.13,0
89,Okrika,NG,2019-11-04 08:03:17,5.52,7.78,87.33,65,43,2.53,scattered clouds,0,0
90,Xichang,CN,2019-11-04 08:03:17,27.88,102.25,51.08,82,57,4.29,light rain,2.19,0
91,Hobyo,SO,2019-11-04 08:03:17,5.35,48.53,88.68,53,100,13.62,light rain,0.81,0
92,Taoudenni,ML,2019-11-04 08:03:17,22.68,-3.98,81.9,23,0,6.98,clear sky,0,0
93,Luanda,AO,2019-11-04 08:03:17,-8.83,13.24,82.4,69,40,4.94,scattered clouds,0,0
94,Saskylakh,RU,2019-11-04 08:03:18,71.97,114.09,-17.78,96,81,8.99,broken clouds,0,0
95,Nassau,AT,2019-11-04 08:03:18,46.81,15.34,52.0,93,75,3.36,light rain,0,0
96,Shangqiu,CN,2019-11-04 08:03:18,34.42,115.65,66.99,53,0,3.6,clear sky,0,0
97,Lazaro Cardenas,MX,2019-11-04 08:03:18,28.39,-105.62,55.99,82,84,1.99,broken clouds,0,0
98,Ustye,RU,2019-11-04 08:03:19,58.76,27.79,38.07,92,100,10.13,light rain,1.19,0
99,Sola,TZ,2019-11-04 08:03:19,-3.17,33.8,82.65,30,60,5.86,broken clouds,0,0
100,Mezen,RU,2019-11-04 08:03:19,65.85,44.24,29.75,92,61,16.51,broken clouds,0,0
101,Hofn,IS,2019-11-04 08:03:20,64.25,-15.21,37.15,72,100,21.79,overcast clouds,0,0
102,Lopsmarka,NO,2019-11-04 08:03:20,67.31,14.45,35.6,93,75,13.87,shower rain,0,0
103,Esperance,AU,2019-11-04 08:03:20,-33.86,121.89,71.6,53,0,16.11,clear sky,0,0
104,Iqaluit,CA,2019-11-04 08:03:20,63.75,-68.52,23.0,67,40,3.36,scattered clouds,0,0
105,Torbay,CA,2019-11-04 08:03:20,47.66,-52.73,45.0,87,40,18.34,scattered clouds,0,0
106,Luoyang,CN,2019-11-04 08:03:21,34.66,112.42,66.47,44,0,1.3,clear sky,0,0
107,Luino,IT,2019-11-04 08:03:21,46.0,8.74,55.99,100,0,1.12,clear sky,0,0
108,Morki,RU,2019-11-04 08:03:21,56.43,49.0,33.66,84,100,14.29,light rain,0.13,0
109,Paamiut,GL,2019-11-04 08:03:22,61.99,-49.67,32.47,49,100,8.77,overcast clouds,0,0
110,Miami Beach,US,2019-11-04 08:03:22,45.45,-84.56,37.99,100,90,4.7,overcast clouds,0,0
111,Chernaya Kholunitsa,RU,2019-11-04 08:03:22,58.85,51.72,31.89,91,100,12.39,overcast clouds,0,0
112,Goderich,CA,2019-11-04 08:00:07,43.74,-81.71,48.0,85,100,16.84,light rain,0.69,0
113,Vestmannaeyjar,IS,2019-11-04 08:03:22,63.44,-20.27,39.2,60,75,18.34,broken clouds,0,0
114,Upernavik,GL,2019-11-04 08:03:23,72.79,-56.15,21.63,64,100,8.46,overcast clouds,0,0
115,San Patricio,PY,2019-11-04 08:03:23,-26.98,-56.83,69.76,98,14,3.85,light rain,1,0
116,Bandarbeyla,SO,2019-11-04 08:03:23,9.49,50.81,82.04,78,100,10.76,light rain,2.88,0
117,Nikolskoye,RU,2019-11-04 08:03:24,59.7,30.79,35.6,93,90,8.95,shower sleet,0,0
118,Mahina,ML,2019-11-04 08:03:24,13.76,-10.85,85.64,22,66,5.08,broken clouds,0,0
119,Luderitz,NA,2019-11-04 08:03:24,-26.65,15.16,75.2,36,0,3.36,clear sky,0,0
120,Ariquemes,BR,2019-11-04 08:03:24,-9.91,-63.03,68.77,85,97,1.45,overcast clouds,0,0
121,Vao,EE,2019-11-04 08:03:25,59.1,26.19,38.3,91,100,11.52,light rain,0.56,0
122,Hermanus,ZA,2019-11-04 08:03:25,-34.42,19.24,73.99,62,33,11.99,scattered clouds,0,0
123,Tasiilaq,GL,2019-11-04 08:03:25,65.61,-37.64,28.4,92,98,2.24,light snow,0,0.13
124,Vysokogornyy,RU,2019-11-04 08:03:25,50.1,139.13,17.91,95,94,3.62,overcast clouds,0,0
125,Boca Do Acre,BR,2019-11-04 08:03:25,-8.76,-67.39,70.43,96,100,1.25,overcast clouds,0,0
126,Jalpa,MX,2019-11-04 08:03:26,21.63,-102.98,59.59,77,0,2.62,clear sky,0,0
127,Turukhansk,RU,2019-11-04 08:03:26,65.8,87.96,4.53,93,100,6.33,light snow,0,0.19
128,The Valley,AI,2019-11-04 08:01:19,18.22,-63.06,80.6,83,20,5.82,thunderstorm,0,0
129,Srednekolymsk,RU,2019-11-04 08:03:27,67.46,153.71,0.7,90,94,3.24,overcast clouds,0,0
130,Port Hardy,CA,2019-11-04 08:03:27,50.7,-127.42,53.6,87,40,5.82,scattered clouds,0,0
131,Voh,NC,2019-11-04 08:03:27,-20.95,164.69,72.39,73,21,12.62,few clouds,0,0
132,Bethel,US,2019-11-04 08:03:27,60.79,-161.76,17.6,72,1,17.22,clear sky,0,0
133,Henties Bay,NA,2019-11-04 08:03:28,-22.12,14.28,96.33,6,0,10.58,clear sky,0,0
134,Chara,GR,2019-11-04 08:03:28,39.42,22.43,71.6,68,40,8.05,scattered clouds,0,0
135,Kungurtug,RU,2019-11-04 08:03:28,50.6,97.53,28.36,43,100,1.88,overcast clouds,0,0
136,Yulara,AU,2019-11-04 08:03:28,-25.24,130.99,86.0,7,0,10.29,clear sky,0,0
137,Xiaoyi,CN,2019-11-04 08:03:28,37.15,111.77,55.22,43,0,3.38,clear sky,0,0
138,Fairbanks,US,2019-11-04 08:01:39,64.84,-147.72,12.99,92,1,4.7,clear sky,0,0
139,Grindavik,IS,2019-11-04 08:03:29,63.84,-22.43,37.4,100,90,16.11,light intensity drizzle,0,0
140,Berlevag,NO,2019-11-04 08:03:29,70.86,29.09,33.8,92,90,43.62,overcast clouds,0,0
141,Vanavara,RU,2019-11-04 08:03:29,60.35,102.28,7.86,92,100,5.39,overcast clouds,0,0
142,Coahuayana,MX,2019-11-04 08:03:30,18.62,-100.35,68.54,86,0,2.48,clear sky,0,0
143,Kaitangata,NZ,2019-11-04 08:03:30,-46.28,169.85,54.0,90,45,5.01,scattered clouds,0,0
144,Sobolevo,RU,2019-11-04 08:03:30,54.43,31.9,51.8,88,100,16.13,overcast clouds,0,0
145,Clyde River,CA,2019-11-04 08:03:30,70.47,-68.59,12.2,72,40,5.82,scattered clouds,0,0
146,Mandalgovi,MN,2019-11-04 08:03:31,45.76,106.27,33.39,40,25,9.37,scattered clouds,0,0
147,Charters Towers,AU,2019-11-04 08:03:31,-20.07,146.27,78.24,57,100,10.11,overcast clouds,0,0
148,Pochutla,MX,2019-11-04 08:03:32,15.74,-96.47,75.0,89,0,5.99,clear sky,0,0
149,Gazli,UZ,2019-11-04 08:03:32,40.13,63.45,46.6,31,0,12.68,clear sky,0,0
150,Mayo,CA,2019-11-04 08:03:32,63.59,-135.9,21.2,92,90,2.24,overcast clouds,0,0
151,Qaqortoq,GL,2019-11-04 08:03:32,60.72,-46.03,24.8,53,20,5.82,few clouds,0,0
152,Longyearbyen,NO,2019-11-04 08:03:32,78.22,15.63,12.2,66,20,14.99,few clouds,0,0
153,Burns Lake,CA,2019-11-04 08:00:12,54.23,-125.76,38.26,97,100,2.53,overcast clouds,0,0
154,Hamilton,CA,2019-11-04 07:59:42,43.26,-79.87,41.0,83,90,5.82,light rain,0,0
155,Souillac,FR,2019-11-04 08:03:33,45.6,-0.6,55.4,93,67,14.99,light rain,0,0
156,Timmins,CA,2019-11-04 08:03:34,48.48,-81.33,26.6,100,75,4.7,broken clouds,0,0
157,Port Moresby,PG,2019-11-04 08:03:34,-9.47,147.16,84.2,74,20,25.59,few clouds,0,0
158,San Andres,PH,2019-11-04 08:03:34,13.32,122.68,80.8,81,0,8.88,clear sky,0,0
159,Havelock,US,2019-11-04 08:03:34,34.88,-76.9,51.01,87,1,4.41,clear sky,0,0
160,Teruel,ES,2019-11-04 08:03:34,40.34,-1.11,57.2,62,75,9.17,broken clouds,0,0
161,Severo-Kurilsk,RU,2019-11-04 08:03:35,50.68,156.12,32.43,92,26,7.85,scattered clouds,0,0
162,Alofi,NU,2019-11-04 08:03:35,-19.06,-169.92,68.0,77,100,4.7,overcast clouds,0,0
163,Emmett,US,2019-11-04 08:03:35,43.87,-116.5,39.0,74,29,3.91,scattered clouds,0,0
164,Yar-Sale,RU,2019-11-04 08:03:36,66.83,70.83,4.48,94,1,13.18,clear sky,0,0
165,San Pedro,AR,2019-11-04 08:03:36,-33.68,-59.66,64.99,85,80,2.57,broken clouds,0,0
166,Roma,IT,2019-11-04 08:01:39,41.89,12.48,66.99,77,40,5.82,scattered clouds,0,0
167,Candolim,IN,2019-11-04 08:03:36,15.52,73.76,87.8,66,20,12.75,few clouds,0,0
168,Waitati,NZ,2019-11-04 08:03:37,-45.75,170.57,54.0,93,4,5.99,clear sky,0,0
169,Neepawa,CA,2019-11-04 08:03:37,50.23,-99.46,24.8,92,75,8.05,broken clouds,0,0
170,Ossora,RU,2019-11-04 08:03:37,59.24,163.07,38.08,95,100,26.98,light rain,1.94,0
171,Ayorou,NE,2019-11-04 08:03:37,14.73,0.92,91.11,22,88,3.94,overcast clouds,0,0
172,Port Maria,JM,2019-11-04 08:03:37,18.37,-76.89,78.8,69,20,5.82,few clouds,0,0
173,Portland,US,2019-11-04 08:00:18,43.66,-70.25,39.2,60,1,8.05,clear sky,0,0
174,Praia Da Vitoria,PT,2019-11-04 08:03:38,38.73,-27.07,62.6,100,90,17.11,overcast clouds,0,0
175,Rio Gallegos,AR,2019-11-04 08:03:38,-51.62,-69.22,42.8,60,8,27.51,clear sky,0,0
176,College,US,2019-11-04 08:03:39,64.86,-147.8,15.8,92,1,4.7,clear sky,0,0
177,Karasjok,NO,2019-11-04 08:03:39,69.47,25.52,30.2,58,20,40.26,few clouds,0,0
178,Dudinka,RU,2019-11-04 08:03:39,69.41,86.18,-0.41,84,75,20.13,light shower snow,0,0
179,Kikwit,CD,2019-11-04 08:03:39,-5.04,18.82,83.97,61,100,4.59,overcast clouds,0,0
180,Quilmana,PE,2019-11-04 08:03:40,-12.95,-76.38,60.35,91,65,2.33,broken clouds,0,0
181,Samarai,PG,2019-11-04 08:03:40,-10.62,150.67,74.68,92,100,5.1,light rain,0.75,0
182,Price,US,2019-11-04 08:03:40,39.6,-110.81,34.0,31,1,6.93,clear sky,0,0
183,Tura,RU,2019-11-04 08:03:40,64.27,100.22,-7.25,88,99,1.95,overcast clouds,0,0
184,Kontagora,NG,2019-11-04 08:03:41,10.4,5.47,86.36,43,99,2.8,overcast clouds,0,0
185,Dzilam Gonzalez,MX,2019-11-04 08:03:41,21.28,-88.93,81.0,78,86,11.01,light rain,0.75,0
186,Bambous Virieux,MU,2019-11-04 08:03:41,-20.34,57.76,80.6,69,40,18.34,scattered clouds,0,0
187,Rosetta,EG,2019-11-04 08:03:41,31.4,30.42,73.4,69,0,5.82,clear sky,0,0
188,Tautira,PF,2019-11-04 08:03:42,-17.73,-149.15,78.8,83,75,3.36,light rain,0,0
189,Molina,CL,2019-11-04 08:03:42,-35.11,-71.28,53.6,76,100,5.82,overcast clouds,0,0
190,Sao Filipe,CV,2019-11-04 08:03:42,14.9,-24.5,78.94,71,32,9.08,scattered clouds,0,0
191,Nouadhibou,MR,2019-11-04 08:03:43,20.93,-17.03,73.4,64,0,12.75,clear sky,0,0
192,Keti Bandar,PK,2019-11-04 08:03:43,24.14,67.45,89.24,48,2,11.54,light rain,0.38,0
193,Atambua,ID,2019-11-04 08:03:43,-9.11,124.89,79.05,71,5,5.66,light rain,1.06,0
194,Cherskiy,RU,2019-11-04 08:03:43,68.75,161.3,14.49,89,91,1.57,overcast clouds,0,0
195,Victoria,BN,2019-11-04 08:03:43,5.28,115.24,89.6,70,75,8.05,broken clouds,0,0
196,Egvekinot,RU,2019-11-04 08:03:44,66.32,-179.17,8.31,96,60,3.51,broken clouds,0,0
197,Nalut,LY,2019-11-04 08:03:44,31.86,10.98,74.3,39,0,10.49,clear sky,0,0
198,Peniche,PT,2019-11-04 08:03:44,39.36,-9.38,64.4,72,20,9.17,few clouds,0,0
199,Ribeira Grande,PT,2019-11-04 08:03:45,38.52,-28.7,64.4,88,75,10.29,light intensity shower rain,0,0
200,Ancud,CL,2019-11-04 08:03:45,-41.87,-73.83,42.8,93,40,6.93,scattered clouds,0,0
201,Komsomolskiy,RU,2019-11-04 08:03:45,67.55,63.78,10.18,81,100,17.49,overcast clouds,0,0
202,Kuruman,ZA,2019-11-04 08:03:45,-27.46,23.43,93.0,12,0,1.01,clear sky,0,0
203,Akranes,IS,2019-11-04 08:03:46,64.32,-22.07,37.4,100,90,16.11,light intensity drizzle,0,0
204,Husavik,CA,2019-11-04 08:03:46,50.56,-96.99,26.01,97,83,5.01,broken clouds,0,0
205,Palmer,AU,2019-11-04 08:03:47,-34.85,139.16,62.01,55,40,10.29,scattered clouds,0,0
206,Kruisfontein,ZA,2019-11-04 08:03:47,-34.0,24.73,70.99,42,0,10.09,clear sky,0,0
207,Clovis,US,2019-11-04 08:03:47,36.83,-119.7,59.0,16,1,3.36,clear sky,0,0
208,Ponta Delgada,PT,2019-11-04 08:03:47,37.73,-25.67,64.4,82,40,2.24,scattered clouds,0,0
209,San Cristobal,HN,2019-11-04 08:03:48,14.68,-86.92,63.32,98,80,3.04,broken clouds,0,0
210,Hatillo,PR,2019-11-04 08:03:48,18.49,-66.83,73.99,88,1,3.36,clear sky,0,0
211,Tondano,ID,2019-11-04 08:03:48,1.3,124.91,86.0,70,40,2.24,scattered clouds,0,0
212,Madisonville,US,2019-11-04 08:03:49,37.33,-87.5,41.0,80,1,6.98,clear sky,0,0
213,San Juan,AR,2019-11-04 08:03:49,-31.54,-68.53,65.7,58,0,6.46,clear sky,0,0
214,Tiarei,PF,2019-11-04 08:03:49,-17.53,-149.33,78.8,83,75,3.36,light rain,0,0
215,Cockburn Town,TC,2019-11-04 08:03:49,21.46,-71.14,81.01,72,0,12.01,light rain,0.31,0
216,Zemio,CF,2019-11-04 08:03:50,5.02,25.13,81.73,76,13,4.7,light rain,2.69,0
217,Canico,PT,2019-11-04 08:03:50,32.63,-16.85,69.8,72,40,3.36,scattered clouds,0,0
218,Mongu,ZM,2019-11-04 08:03:50,-15.27,23.14,98.33,16,58,10.69,broken clouds,0,0
219,Carmen,PH,2019-11-04 08:03:51,7.36,125.71,87.8,66,75,6.93,broken clouds,0,0
220,Marzuq,YE,2019-11-04 08:03:51,14.4,46.47,85.62,21,17,13.13,few clouds,0,0
221,Arti,RU,2019-11-04 08:03:51,56.43,58.53,28.27,78,100,14.97,overcast clouds,0,0
222,Vila Praia De Ancora,PT,2019-11-04 08:03:51,41.81,-8.85,63.0,87,75,6.93,broken clouds,0,0
223,Kirkuk,IQ,2019-11-04 08:03:51,35.47,44.4,73.45,24,0,6.8,clear sky,0,0
224,Ucluelet,CA,2019-11-04 08:03:52,48.94,-125.55,48.0,93,21,2.19,few clouds,0,0
225,Tocopilla,CL,2019-11-04 08:03:52,-22.09,-70.2,50.27,32,0,3.33,clear sky,0,0
226,Cancun,MX,2019-11-04 08:02:14,21.17,-86.85,78.8,100,40,2.24,scattered clouds,0,0
227,Mahebourg,MU,2019-11-04 08:01:12,-20.41,57.7,80.6,69,40,18.34,scattered clouds,0,0
228,Upata,VE,2019-11-04 08:03:53,8.02,-62.41,77.0,90,24,1.99,few clouds,0,0
229,Karwar,IN,2019-11-04 08:03:08,14.8,74.13,83.08,73,0,9.15,clear sky,0,0
230,Saint George,GR,2019-11-04 08:03:53,39.45,22.34,71.6,68,40,8.05,scattered clouds,0,0
231,Codrington,AU,2019-11-04 08:03:54,-28.95,153.24,93.2,45,40,8.05,scattered clouds,0,0
232,Muskogee,US,2019-11-04 08:03:54,35.75,-95.37,50.0,75,1,5.82,clear sky,0,0
233,Na Wa,TH,2019-11-04 08:03:54,17.49,104.1,86.0,51,75,6.93,broken clouds,0,0
234,Holme,DK,2019-11-04 08:03:54,56.11,10.17,50.0,100,100,16.11,light rain,0,0
235,Khakhea,BW,2019-11-04 08:03:54,-24.69,23.5,93.52,11,0,7.96,clear sky,0,0
236,Hambantota,LK,2019-11-04 08:03:55,6.12,81.12,87.8,70,75,4.7,broken clouds,0,0
237,Springbok,ZA,2019-11-04 08:01:15,-29.67,17.88,82.4,9,0,8.05,clear sky,0,0
238,Shasta Lake,US,2019-11-04 08:03:55,40.68,-122.36,52.0,37,1,2.15,clear sky,0,0
239,Tepalcatepec,MX,2019-11-04 08:03:55,19.19,-102.85,63.77,79,100,3.65,overcast clouds,0,0
240,Sehithwa,BW,2019-11-04 08:03:56,-20.47,22.7,93.51,24,0,9.22,clear sky,0,0
241,Udachnyy,RU,2019-11-04 08:03:56,66.42,112.4,-9.41,76,75,4.47,broken clouds,0,0
242,Santa Cruz,BR,2019-11-04 08:03:56,-6.22,-36.02,71.67,89,79,7.4,broken clouds,0,0
243,Kenai,US,2019-11-04 08:03:56,60.55,-151.26,37.0,70,90,5.82,overcast clouds,0,0
244,Evensk,RU,2019-11-04 08:03:57,61.92,159.24,27.03,79,97,11.18,overcast clouds,0,0
245,Banda Aceh,ID,2019-11-04 08:00:04,5.56,95.32,85.86,62,66,1.41,light rain,0.5,0
246,Beloha,MG,2019-11-04 08:03:57,-25.17,45.06,97.95,17,8,11.27,clear sky,0,0
247,Waingapu,ID,2019-11-04 08:03:57,-9.65,120.26,82.96,71,61,15.23,broken clouds,0,0
248,Dongzhen,CN,2019-11-04 08:03:57,43.33,129.73,31.64,49,0,1.97,clear sky,0,0
249,Celestun,MX,2019-11-04 08:03:58,20.87,-90.4,79.39,82,82,15.41,broken clouds,0,0
250,Samoded,RU,2019-11-04 08:03:58,63.61,40.52,26.11,84,78,9.08,broken clouds,0,0
251,Yanam,IN,2019-11-04 08:03:58,16.73,82.22,91.4,41,0,3.36,clear sky,0,0
252,Laguna,BZ,2019-11-04 08:03:59,16.17,-88.94,73.4,94,13,3.29,light rain,0.13,0
253,Tosya,TR,2019-11-04 08:03:59,41.02,34.04,41.0,75,41,2.24,scattered clouds,0,0
254,Ketchikan,US,2019-11-04 08:03:59,55.34,-131.65,53.6,100,90,6.93,overcast clouds,0,0
255,Vila Franca Do Campo,PT,2019-11-04 08:03:59,37.72,-25.43,64.4,82,40,2.24,scattered clouds,0,0
256,Champerico,MX,2019-11-04 08:04:00,16.38,-93.6,65.84,94,100,2.68,overcast clouds,0,0
257,Altay,CN,2019-11-04 08:04:00,47.83,88.13,43.88,58,97,4.36,overcast clouds,0,0
258,Ponta Do Sol,BR,2019-11-04 08:04:00,-20.63,-46.0,67.82,82,0,0.89,clear sky,0,0
259,Arbon,CH,2019-11-04 08:04:00,47.51,9.43,51.8,81,20,6.93,few clouds,0,0
260,Ouadda,CF,2019-11-04 08:04:01,8.07,22.4,85.77,35,0,9.64,clear sky,0,0
261,Hasaki,JP,2019-11-04 08:04:01,35.73,140.83,59.0,72,20,9.17,few clouds,0,0
262,Constitucion,MX,2019-11-04 08:04:01,23.99,-104.67,55.99,79,100,2.21,light rain,0.75,0
263,Kloulklubed,PW,2019-11-04 08:04:01,7.04,134.26,78.8,88,90,10.29,overcast clouds,0,0
264,Banjar,ID,2019-11-04 08:04:02,-7.37,108.54,78.98,74,80,6.67,light rain,0.19,0
265,Ibiapina,BR,2019-11-04 08:04:02,-3.92,-40.89,69.19,88,49,13.85,scattered clouds,0,0
266,Ahipara,NZ,2019-11-04 08:04:02,-35.17,173.16,61.02,81,100,11.25,overcast clouds,0,0
267,Bonthe,SL,2019-11-04 08:04:02,7.53,-12.5,80.69,79,0,4.23,clear sky,0,0
268,Biltine,TD,2019-11-04 08:04:02,14.53,20.93,91.04,10,0,19.55,clear sky,0,0
269,Mogadishu,SO,2019-11-04 07:59:14,2.04,45.34,86.0,66,40,11.41,scattered clouds,0,0
270,Karratha,AU,2019-11-04 08:00:15,-20.74,116.85,82.0,50,99,14.9,overcast clouds,0,0
271,Svetlogorsk,RU,2019-11-04 08:04:03,53.14,59.15,19.4,92,40,2.24,scattered clouds,0,0
272,Takoradi,GH,2019-11-04 08:04:04,4.89,-1.75,82.94,71,2,2.13,clear sky,0,0
273,San Ignacio,PE,2019-11-04 08:04:04,-5.15,-79.0,62.22,98,100,0.2,moderate rain,3.25,0
274,Marystown,CA,2019-11-04 08:04:04,47.17,-55.16,44.01,2,0,1.01,clear sky,0,0
275,Shimoda,JP,2019-11-04 08:04:05,34.7,138.93,64.4,55,20,9.17,few clouds,0,0
276,Kamenka,MD,2019-11-04 08:04:05,48.03,28.7,55.99,79,0,7.0,clear sky,0,0
277,Luba,PH,2019-11-04 08:04:05,17.32,120.7,77.22,91,100,1.59,moderate rain,7.5,0
278,Maniitsoq,GL,2019-11-04 08:04:05,65.42,-52.9,29.86,64,100,12.44,overcast clouds,0,0
279,Ornskoldsvik,SE,2019-11-04 08:04:06,63.29,18.72,21.2,85,20,5.82,few clouds,0,0
280,Whakatane,NZ,2019-11-04 08:04:06,-37.96,176.99,71.01,40,0,3.53,clear sky,0,0
281,Port Elizabeth,US,2019-11-04 08:03:27,39.31,-74.98,39.99,100,1,3.11,clear sky,0,0
282,Port Blair,IN,2019-11-04 08:04:06,11.67,92.75,80.71,85,100,23.94,light rain,2.81,0
283,Hingatungan,PH,2019-11-04 08:04:07,10.58,125.19,77.74,83,100,2.42,overcast clouds,0,0
284,Eugene,US,2019-11-04 08:04:07,44.05,-123.1,43.0,93,1,0.25,mist,0,0
285,Lompoc,US,2019-11-04 08:04:07,34.64,-120.46,50.0,56,1,5.26,clear sky,0,0
286,Itarema,BR,2019-11-04 08:04:08,-2.92,-39.92,78.42,82,80,8.34,light rain,0.25,0
287,Salaga,GH,2019-11-04 08:04:08,8.55,-0.52,81.68,75,100,2.44,overcast clouds,0,0
288,Itoman,JP,2019-11-04 08:04:08,26.12,127.67,77.0,69,75,16.11,broken clouds,0,0
289,Talnakh,RU,2019-11-04 08:04:08,69.49,88.39,-0.41,84,75,20.13,light shower snow,0,0
290,Bull Savanna,JM,2019-11-04 08:04:09,17.89,-77.59,67.03,91,0,4.68,clear sky,0,0
291,Sibolga,ID,2019-11-04 08:04:09,1.74,98.78,79.47,70,99,4.18,overcast clouds,0,0
292,Sibu,MY,2019-11-04 08:04:09,2.29,111.83,91.4,59,75,3.36,broken clouds,0,0
293,Gushikawa,JP,2019-11-04 08:04:09,26.35,127.87,77.0,69,75,16.11,broken clouds,0,0
294,Obo,CF,2019-11-04 08:04:10,5.39,26.49,85.24,62,11,4.65,few clouds,0,0
295,Steamboat Springs,US,2019-11-04 08:03:20,40.48,-106.83,35.6,63,90,9.17,overcast clouds,0,0
296,Abu Zabad,SD,2019-11-04 08:04:10,12.35,29.25,92.88,15,0,15.66,clear sky,0,0
297,Pachora,IN,2019-11-04 08:04:10,20.66,75.35,83.41,58,74,7.02,broken clouds,0,0
298,Port Hueneme,US,2019-11-04 08:04:11,34.15,-119.2,59.0,75,1,1.52,clear sky,0,0
299,Airai,TL,2019-11-04 08:04:11,-8.93,125.41,72.07,79,23,4.92,light rain,1.13,0
300,Tripoli,GR,2019-11-04 08:00:01,37.51,22.37,71.01,88,40,4.7,smoke,0,0
301,Sitangkai,PH,2019-11-04 08:04:11,4.66,119.39,83.89,70,46,8.86,scattered clouds,0,0
302,Marfino,RU,2019-11-04 08:04:12,56.07,37.56,45.0,93,90,13.42,overcast clouds,0,0
303,Obukhiv,UA,2019-11-04 08:04:12,50.11,30.63,57.2,87,90,11.18,overcast clouds,0,0
304,Carnarvon,ZA,2019-11-04 08:04:12,-30.97,22.13,82.06,8,1,9.78,clear sky,0,0
305,Guerrero Negro,MX,2019-11-04 08:04:13,27.97,-114.04,65.77,66,42,4.99,scattered clouds,0,0
306,Padang,ID,2019-11-04 08:04:13,-0.92,100.36,75.31,79,85,4.47,light rain,0.44,0
307,Sur,OM,2019-11-04 08:04:13,22.57,59.53,83.71,59,0,13.65,clear sky,0,0
308,Maumere,ID,2019-11-04 08:04:13,-8.63,122.22,81.34,64,67,2.42,broken clouds,0,0
309,Anloga,GH,2019-11-04 08:04:14,5.79,0.9,77.0,88,20,4.7,few clouds,0,0
310,Kangaatsiaq,GL,2019-11-04 08:04:14,68.31,-53.46,24.73,60,96,12.48,overcast clouds,0,0
311,Coolum Beach,AU,2019-11-04 08:04:14,-26.53,153.09,75.0,93,64,3.83,moderate rain,8.44,0
312,San Jose,HN,2019-11-04 08:04:14,14.25,-87.96,60.89,91,5,7.29,clear sky,0,0
313,Bathsheba,BB,2019-11-04 08:04:15,13.22,-59.52,82.4,74,20,14.99,few clouds,0,0
314,Evans,US,2019-11-04 08:04:15,40.38,-104.69,42.8,60,90,3.71,overcast clouds,0,0
315,Angoche,MZ,2019-11-04 08:04:15,-16.23,39.91,89.04,52,2,12.86,light rain,0.81,0
316,Aswan,EG,2019-11-04 07:59:56,24.09,32.9,69.8,37,33,8.05,scattered clouds,0,0
317,Narsaq,GL,2019-11-04 08:04:16,60.91,-46.05,24.8,53,20,5.82,few clouds,0,0
318,Petropavlovsk-Kamchatskiy,RU,2019-11-04 08:04:16,53.05,158.65,33.8,78,0,4.47,clear sky,0,0
319,Acapulco,MX,2019-11-04 08:04:16,16.86,-99.88,78.8,88,75,3.58,broken clouds,0,0
320,Zhengjiatun,CN,2019-11-04 08:04:17,43.51,123.51,39.97,25,0,7.61,clear sky,0,0
321,Barentu,ER,2019-11-04 08:04:17,15.11,37.59,91.35,22,0,16.4,clear sky,0,0
322,Fujin,CN,2019-11-04 08:04:17,47.24,132.03,32.25,48,0,3.71,clear sky,0,0
323,Sinnamary,GF,2019-11-04 08:04:17,5.38,-52.96,81.99,83,99,17.36,light rain,0.75,0
324,Georgetown,GY,2019-11-04 08:00:23,6.8,-58.16,75.2,94,20,2.24,few clouds,0,0
325,Suntar,RU,2019-11-04 08:04:18,62.16,117.65,10.71,81,100,7.34,overcast clouds,0,0
326,Russell,US,2019-11-04 08:04:18,38.9,-98.86,46.4,56,1,6.93,clear sky,0,0
327,Ghanzi,BW,2019-11-04 08:04:18,-21.7,21.65,93.24,17,0,12.08,clear sky,0,0
328,Quatre Cocos,MU,2019-11-04 08:04:18,-20.21,57.76,80.6,69,40,18.34,scattered clouds,0,0
329,Boissevain,CA,2019-11-04 08:04:19,49.23,-100.06,28.4,92,90,11.41,overcast clouds,0,0
330,Sitka,US,2019-11-04 08:04:19,37.17,-99.65,39.0,70,0,11.99,clear sky,0,0
331,Flinders,AU,2019-11-04 08:04:19,-34.58,150.85,68.0,77,75,10.29,broken clouds,0,0
332,Nuuk,GL,2019-11-04 08:04:19,64.17,-51.74,28.4,63,100,5.82,overcast clouds,0,0
333,Saeby,DK,2019-11-04 08:04:20,57.33,10.52,44.01,93,75,17.22,light rain,0,0
334,Hualmay,PE,2019-11-04 08:04:20,-11.1,-77.61,60.19,84,96,2.62,overcast clouds,0,0
335,Merauke,ID,2019-11-04 08:04:20,-8.49,140.4,79.65,75,100,7.47,overcast clouds,0,0
336,Zabol,IR,2019-11-04 08:04:20,31.03,61.49,73.4,35,0,21.92,clear sky,0,0
337,Kardla,EE,2019-11-04 08:04:21,58.44,26.57,39.2,93,90,12.75,light intensity drizzle,0,0
338,Rosarito,CO,2019-11-04 08:04:21,4.91,-75.23,64.36,97,100,2.06,moderate rain,5.38,0
339,Dongsheng,CN,2019-11-04 08:04:21,29.72,112.52,71.33,40,0,7.67,clear sky,0,0
340,Tshane,BW,2019-11-04 08:04:22,-24.02,21.87,93.78,12,0,11.21,clear sky,0,0
341,Sisimiut,GL,2019-11-04 08:04:22,66.94,-53.67,20.59,66,96,8.77,overcast clouds,0,0
342,Katsuura,JP,2019-11-04 08:04:23,33.93,134.5,64.4,45,40,13.87,scattered clouds,0,0
343,Mattru,SL,2019-11-04 08:04:23,7.62,-11.83,80.51,81,1,2.35,clear sky,0,0
344,Dingle,PH,2019-11-04 08:04:23,11.0,122.67,80.08,85,84,7.31,light rain,1.06,0
345,Christchurch,NZ,2019-11-04 08:04:23,-43.53,172.64,70.0,63,99,5.82,overcast clouds,0,0
346,Thompson,CA,2019-11-04 08:04:24,55.74,-97.86,10.4,72,90,10.29,light snow,0,0
347,Yerbogachen,RU,2019-11-04 08:04:24,61.28,108.01,5.27,88,100,7.31,overcast clouds,0,0
348,Kieta,PG,2019-11-04 08:04:24,-6.22,155.63,80.83,84,100,14.05,moderate rain,5.31,0
349,Clinton,US,2019-11-04 08:04:24,41.28,-72.53,43.0,92,1,1.72,clear sky,0,0
350,Axim,GH,2019-11-04 08:04:25,4.87,-2.24,85.86,67,0,1.59,clear sky,0,0
351,Pineville,US,2019-11-04 08:04:25,31.32,-92.43,48.2,87,1,1.88,clear sky,0,0
352,Carahue,CL,2019-11-04 08:04:25,-38.71,-73.16,50.0,87,90,9.17,overcast clouds,0,0
353,Klaksvik,FO,2019-11-04 08:04:26,62.23,-6.59,39.2,75,100,10.29,light rain,0,0
354,Ust-Tsilma,RU,2019-11-04 08:04:26,65.44,52.15,31.68,90,100,11.32,light snow,0,0.88
355,Chokurdakh,RU,2019-11-04 08:04:26,70.62,147.9,-3.19,95,92,7.76,overcast clouds,0,0
356,Limanowa,PL,2019-11-04 08:04:26,49.71,20.42,63.0,82,75,9.17,broken clouds,0,0
357,Yatou,CM,2019-11-04 08:04:26,3.63,9.81,73.4,100,75,13.87,thunderstorm with heavy rain,0,0
358,Nishihara,JP,2019-11-04 08:04:27,35.74,139.53,66.2,59,20,2.24,few clouds,0,0
359,Ust-Nera,RU,2019-11-04 08:04:27,64.57,143.24,-6.49,99,35,1.07,scattered clouds,0,0
360,Tieli,CN,2019-11-04 08:04:27,46.98,128.05,31.39,36,33,6.98,scattered clouds,0,0
361,Vardo,US,2019-11-04 08:04:27,39.62,-77.74,35.6,86,1,1.88,clear sky,0,0
362,Lipin Bor,RU,2019-11-04 08:04:27,60.26,37.97,34.03,95,100,5.57,light snow,0,0.56
363,Okhotsk,RU,2019-11-04 08:04:28,59.36,143.24,22.75,73,100,7.49,overcast clouds,0,0
364,Arroyo,BO,2019-11-04 08:04:28,-11.08,-66.08,74.12,79,99,1.74,overcast clouds,0,0
365,Ensley,US,2019-11-04 08:04:28,33.51,-86.89,45.0,86,1,3.89,clear sky,0,0
366,Leh,IN,2019-11-04 08:04:28,34.16,77.58,30.87,34,36,5.99,light snow,0,0.31
367,Zhicheng,CN,2019-11-04 08:04:29,35.04,112.59,64.98,47,0,3.78,clear sky,0,0
368,Abu Kamal,SY,2019-11-04 08:04:29,34.45,40.92,75.45,30,0,6.04,clear sky,0,0
369,Dutlwe,BW,2019-11-04 08:04:29,-23.98,23.93,91.98,14,0,10.67,clear sky,0,0
370,Fantanele,RO,2019-11-04 08:04:29,46.12,21.4,63.0,82,100,17.22,light rain,1.25,0
371,Aksu,KZ,2019-11-04 08:04:30,52.04,76.93,32.0,70,90,13.42,overcast clouds,0,0
372,Gangtok,IN,2019-11-04 08:04:30,27.33,88.61,56.23,67,91,1.61,light rain,1.63,0
373,Saldanha,PT,2019-11-04 08:04:31,41.42,-6.55,54.09,84,100,20.33,light rain,0.19,0
374,Pacific Grove,US,2019-11-04 08:04:32,36.62,-121.92,55.99,61,1,4.7,clear sky,0,0
375,Natal,BR,2019-11-04 08:04:32,-5.81,-35.21,75.2,88,40,5.82,scattered clouds,0,0
376,Fortuna,US,2019-11-04 08:00:20,40.6,-124.16,46.4,100,90,3.44,overcast clouds,0,0
377,Nikolsk,RU,2019-11-04 08:04:32,59.53,45.45,37.06,96,100,11.3,light rain,1.81,0
378,Durazno,UY,2019-11-04 08:04:32,-33.38,-56.52,58.37,92,77,9.51,broken clouds,0,0
379,Trairi,BR,2019-11-04 08:04:33,-3.28,-39.27,75.49,85,33,5.95,light rain,0.19,0
380,Gizo,IL,2019-11-04 08:04:33,31.8,34.94,79.0,50,0,2.24,clear sky,0,0
381,Caibarien,CU,2019-11-04 08:04:33,22.52,-79.47,69.8,94,5,2.24,clear sky,0,0
382,Alcaniz,ES,2019-11-04 08:04:33,41.05,-0.13,62.01,65,3,24.49,clear sky,0,0
383,Katsina,NG,2019-11-04 08:04:34,12.99,7.6,88.16,14,36,13.65,scattered clouds,0,0
384,Manaus,BR,2019-11-04 08:04:34,-3.13,-59.98,78.8,83,67,2.24,broken clouds,0,0
385,Saint-Pierre,FR,2019-11-04 08:04:35,48.95,4.24,51.8,100,90,18.34,overcast clouds,0,0
386,Walvis Bay,NA,2019-11-04 08:04:35,-22.95,14.51,84.2,18,0,8.05,clear sky,0,0
387,Berdigestyakh,RU,2019-11-04 08:04:35,62.1,126.7,14.9,88,100,5.88,overcast clouds,0,0
388,Morondava,MG,2019-11-04 08:04:36,-20.3,44.28,103.41,11,10,4.65,clear sky,0,0
389,Olinda,AU,2019-11-04 08:04:36,-37.84,145.39,57.0,81,40,6.93,scattered clouds,0,0
390,Kipini,KE,2019-11-04 08:04:36,-2.53,40.53,86.0,66,75,11.59,broken clouds,0,0
391,Pathein,MM,2019-11-04 08:04:36,16.78,94.73,85.77,70,8,3.94,light rain,1.81,0
392,Nizwa,OM,2019-11-04 08:04:37,22.93,57.53,82.8,37,21,7.2,few clouds,0,0
393,Sapa,PH,2019-11-04 08:04:37,14.32,120.76,88.0,74,75,10.29,broken clouds,0,0
394,Vanimo,PG,2019-11-04 08:04:37,-2.67,141.3,81.73,75,100,12.88,overcast clouds,0,0
395,Auki,NG,2019-11-04 08:04:38,12.18,6.51,88.25,20,99,10.02,overcast clouds,0,0
396,May Pen,JM,2019-11-04 08:04:38,17.97,-77.26,78.8,69,20,5.82,few clouds,0,0
397,Loreto,PY,2019-11-04 08:04:38,-23.27,-57.32,81.19,46,60,6.76,broken clouds,0,0
398,Teguldet,RU,2019-11-04 08:04:38,57.31,88.17,26.62,59,100,3.94,overcast clouds,0,0
399,Povenets,RU,2019-11-04 08:04:39,62.85,34.83,24.58,82,54,4.41,broken clouds,0,0
400,Mareeba,AU,2019-11-04 08:04:39,-16.99,145.42,80.6,65,94,10.29,overcast clouds,0,0
401,Sistranda,NO,2019-11-04 08:04:40,63.73,8.83,35.01,40,0,17.22,clear sky,0,0
402,Yumen,CN,2019-11-04 08:04:40,40.29,97.04,56.19,19,100,15.37,overcast clouds,0,0
403,Kargasok,RU,2019-11-04 08:04:40,59.06,80.87,20.34,82,0,2.42,clear sky,0,0
404,Cidreira,BR,2019-11-04 08:04:40,-30.17,-50.22,68.45,78,14,20.18,few clouds,0,0
405,Kichera,RU,2019-11-04 08:04:41,55.93,110.1,4.84,80,85,3.2,overcast clouds,0,0
406,Lom Sak,TH,2019-11-04 08:04:41,16.78,101.24,91.4,52,40,5.82,scattered clouds,0,0
407,Drayton Valley,CA,2019-11-04 08:04:41,53.22,-114.98,26.65,96,100,1.99,light snow,0,0.44
408,Leeton,AU,2019-11-04 08:04:42,-34.55,146.4,69.8,62,62,13.87,light rain,0.19,0
409,Brewster,US,2019-11-04 08:02:41,41.76,-70.08,46.4,56,1,6.93,clear sky,0,0
410,Awjilah,LY,2019-11-04 08:04:44,29.14,21.3,82.08,27,0,15.68,clear sky,0,0
411,Tymoshivka,UA,2019-11-04 08:04:44,48.98,32.07,60.21,73,100,21.9,overcast clouds,0,0
412,Castlemaine,AU,2019-11-04 08:00:15,-37.07,144.22,55.99,68,15,8.03,light rain,0.88,0
413,Barabai,ID,2019-11-04 08:04:45,-2.59,115.38,88.23,54,92,2.26,overcast clouds,0,0
414,Vila Velha,BR,2019-11-04 08:04:45,-3.71,-38.6,79.0,83,40,10.29,scattered clouds,0,0
415,Cururupu,BR,2019-11-04 08:04:46,-1.82,-44.87,74.12,92,3,3.47,clear sky,0,0
416,Mecca,SA,2019-11-04 08:04:07,21.43,39.83,92.57,25,0,9.08,clear sky,0,0
417,Ostrovnoy,RU,2019-11-04 08:04:46,68.05,39.51,29.41,95,100,24.0,light snow,0,0.44
418,Poum,MK,2019-11-04 08:04:47,41.28,20.71,57.2,82,90,17.22,moderate rain,0,0
419,Senneterre,CA,2019-11-04 08:04:47,48.39,-77.24,28.4,86,90,3.36,overcast clouds,0,0
420,Vostok,RU,2019-11-04 08:04:47,46.45,135.83,17.74,73,0,2.08,clear sky,0,0
421,Tomatlan,MX,2019-11-04 08:04:47,19.93,-105.25,67.89,88,100,2.93,overcast clouds,0,0
422,Oistins,BB,2019-11-04 08:04:48,13.07,-59.53,82.4,74,20,14.99,few clouds,0,0
423,Kem,UG,2019-11-04 08:04:48,2.68,33.77,88.27,29,95,13.31,overcast clouds,0,0
424,Bukachacha,RU,2019-11-04 08:04:48,52.99,116.91,17.98,62,47,13.29,scattered clouds,0,0
425,Makakilo City,US,2019-11-04 08:04:48,21.35,-158.09,78.8,100,90,2.44,light intensity drizzle,0,0
426,Ewa Beach,US,2019-11-04 08:04:49,21.32,-158.01,78.8,100,90,2.44,light intensity drizzle,0,0
427,Strelka,RU,2019-11-04 08:04:49,58.08,93.03,24.44,57,100,6.35,overcast clouds,0,0
428,Marrakesh,MA,2019-11-04 08:04:35,31.63,-7.99,62.6,88,75,4.7,broken clouds,0,0
429,Geraldton,CA,2019-11-04 08:04:49,49.72,-86.95,26.6,86,75,3.36,broken clouds,0,0
430,Anadyr,RU,2019-11-04 08:04:50,64.73,177.51,23.0,92,90,6.71,overcast clouds,0,0
431,Green River,US,2019-11-04 08:04:50,41.53,-109.47,37.99,54,1,6.93,clear sky,0,0
432,Shache,CN,2019-11-04 08:04:50,38.42,77.24,63.93,17,69,3.29,broken clouds,0,0
433,Belousovka,KZ,2019-11-04 08:04:50,50.13,82.52,51.8,53,40,2.24,scattered clouds,0,0
434,Huambo,AO,2019-11-04 08:04:50,-12.78,15.73,72.52,64,75,8.01,light rain,0.81,0
435,Umm Lajj,SA,2019-11-04 08:04:51,25.02,37.27,89.37,10,0,9.1,clear sky,0,0
436,Mahibadhoo,MV,2019-11-04 08:04:51,3.78,72.97,83.25,67,36,4.81,scattered clouds,0,0
437,Thinadhoo,MV,2019-11-04 08:04:51,0.53,72.93,83.59,63,33,2.21,scattered clouds,0,0
438,Nakhon Phanom,LA,2019-11-04 08:04:51,17.4,104.79,84.2,58,75,3.36,broken clouds,0,0
439,Darhan,MN,2019-11-04 08:04:52,49.49,105.92,29.44,42,0,2.86,clear sky,0,0
440,Half Moon Bay,US,2019-11-04 08:04:52,37.46,-122.43,60.01,93,90,4.45,fog,0,0
441,Hami,CN,2019-11-04 08:04:52,42.84,93.51,62.73,15,60,3.13,broken clouds,0,0
442,Zapolyarnyy,RU,2019-11-04 08:04:52,69.43,30.82,26.6,79,40,39.15,scattered clouds,0,0
443,Monrovia,LR,2019-11-04 08:04:52,6.33,-10.8,75.2,94,40,4.38,mist,0,0
444,Alyangula,AU,2019-11-04 08:04:53,-13.85,136.42,78.8,88,64,3.36,light intensity shower rain,0,0
445,Gillette,US,2019-11-04 08:04:53,44.29,-105.5,33.01,94,90,9.17,light rain,0,0
446,Aklavik,CA,2019-11-04 08:04:53,68.22,-135.01,14.0,92,40,5.82,scattered clouds,0,0
447,Rio Claro,BR,2019-11-04 08:04:53,-22.41,-47.56,71.42,80,73,1.66,broken clouds,0,0
448,Atasu,KZ,2019-11-04 08:04:54,48.68,71.64,37.72,51,65,19.64,broken clouds,0,0
449,Hirara,JP,2019-11-04 08:04:54,24.8,125.28,75.2,78,75,14.99,light rain,0,0
450,Nowshera,PK,2019-11-04 08:04:54,34.02,71.98,77.0,47,20,4.7,haze,0,0
451,Pimentel,BR,2019-11-04 08:04:55,-3.7,-45.5,73.2,95,0,3.94,clear sky,0,0
452,Birjand,IR,2019-11-04 08:04:55,32.86,59.22,71.6,21,0,9.31,clear sky,0,0
453,Uvalde,US,2019-11-04 08:04:56,29.21,-99.79,57.0,87,1,4.7,clear sky,0,0
454,Khandbari,NP,2019-11-04 08:04:56,27.38,87.21,51.33,87,57,2.19,light rain,2.25,0
455,Ashington,GB,2019-11-04 08:04:56,55.18,-1.57,48.0,100,40,4.7,scattered clouds,0,0
456,Saint-Ambroise,CA,2019-11-04 08:04:56,48.56,-71.32,35.01,69,75,11.41,broken clouds,0,0
457,Te Anau,NZ,2019-11-04 08:04:57,-45.41,167.72,51.15,95,100,2.93,light rain,0.69,0
458,Sri Aman,MY,2019-11-04 08:04:57,1.24,111.46,78.8,94,75,0.92,broken clouds,0,0
459,Bilibino,RU,2019-11-04 08:04:57,68.06,166.44,6.42,83,55,3.06,broken clouds,0,0
460,Nicolas Bravo,MX,2019-11-04 08:04:57,24.39,-104.74,55.99,79,94,4.25,light rain,1.19,0
461,Cabcaben,PH,2019-11-04 08:04:57,14.45,120.59,88.0,74,75,10.29,broken clouds,0,0
462,Bindura,ZW,2019-11-04 08:04:58,-17.3,31.33,89.31,23,0,7.05,clear sky,0,0
463,Zdvinsk,RU,2019-11-04 08:04:58,54.7,78.67,31.37,54,100,13.24,overcast clouds,0,0
464,Freeport,BS,2019-11-04 08:01:21,26.54,-78.7,78.66,80,0,14.61,light rain,0.25,0
465,Omboue,GA,2019-11-04 08:04:58,-1.57,9.26,73.33,96,100,4.14,moderate rain,7.63,0
466,Richards Bay,ZA,2019-11-04 08:04:58,-28.77,32.06,71.33,74,98,9.4,light rain,0.19,0
467,Aborlan,PH,2019-11-04 08:04:59,9.44,118.55,84.2,83,75,4.7,broken clouds,0,0
468,Isangel,VU,2019-11-04 08:04:59,-19.55,169.27,72.28,79,80,14.45,broken clouds,0,0
469,Prokuplje,RS,2019-11-04 08:04:59,43.23,21.59,71.6,46,20,11.41,few clouds,0,0
470,Sioux Lookout,CA,2019-11-04 08:00:04,50.1,-91.92,30.2,92,90,6.93,light snow,0,0
471,Port Hedland,AU,2019-11-04 08:05:00,-20.31,118.58,95.0,30,40,14.99,scattered clouds,0,0
472,Itaituba,BR,2019-11-04 08:05:00,-4.26,-55.99,75.06,72,4,1.77,clear sky,0,0
473,Dondo,MZ,2019-11-04 08:05:00,-19.62,34.74,101.55,19,0,4.68,clear sky,0,0
474,Rio Grande,BR,2019-11-04 08:00:07,-32.03,-52.1,57.99,98,0,8.37,clear sky,0,0
475,Tuy Hoa,VN,2019-11-04 08:05:01,13.08,109.3,78.21,84,100,27.25,moderate rain,3.75,0
476,Svetlaya,RU,2019-11-04 08:05:01,46.54,138.33,41.32,47,0,11.83,clear sky,0,0
477,Ahuimanu,US,2019-11-04 08:00:07,21.44,-157.84,78.8,100,90,2.44,light intensity drizzle,0,0
478,Sao Joao Da Barra,BR,2019-11-04 08:05:01,-21.64,-41.05,74.73,78,0,5.93,clear sky,0,0
479,Mount Gambier,AU,2019-11-04 08:05:02,-37.83,140.78,55.4,62,40,18.34,scattered clouds,0,0
480,Harper,US,2019-11-04 08:05:02,30.3,-99.24,57.0,76,1,5.82,clear sky,0,0
481,Bilma,NE,2019-11-04 08:05:02,18.69,12.92,91.18,11,0,12.62,clear sky,0,0
482,Manzanillo,MX,2019-11-04 08:05:02,19.05,-104.32,80.01,76,100,4.7,overcast clouds,0,0
483,Carutapera,BR,2019-11-04 08:05:03,-1.2,-46.02,81.23,79,0,17.27,clear sky,0,0
484,Valentin Gomez Farias,MX,2019-11-04 08:05:03,24.05,-104.7,55.99,79,100,2.21,light rain,0.75,0
485,Port Shepstone,ZA,2019-11-04 08:05:03,-30.74,30.45,67.84,80,99,9.62,light rain,0.25,0
486,Ust-Kishert,RU,2019-11-04 08:05:03,57.36,57.24,26.98,93,100,17.29,light snow,0,0.38
487,Cesis,LV,2019-11-04 08:05:04,57.31,25.27,48.99,98,100,5.99,light rain,0.69,0
488,Amahai,ID,2019-11-04 08:05:04,-3.31,129.0,82.11,70,100,4.27,overcast clouds,0,0
489,Valle De Allende,MX,2019-11-04 08:05:04,26.94,-105.39,57.42,73,64,5.3,broken clouds,0,0
490,Indiaroba,BR,2019-11-04 08:05:04,-11.53,-37.51,75.56,89,24,4.63,light rain,0.19,0
491,Yarada,IN,2019-11-04 08:05:04,17.65,83.27,91.4,43,0,6.93,haze,0,0
492,Moyale,ET,2019-11-04 08:05:05,3.52,39.05,77.72,65,98,11.12,light rain,0.63,0
493,Morehead,US,2019-11-04 08:05:05,38.18,-83.43,39.2,64,1,3.36,clear sky,0,0
494,Kirakira,SB,2019-11-04 08:05:05,-10.46,161.92,78.28,85,44,5.5,scattered clouds,0,0
495,Ler,NO,2019-11-04 08:05:05,63.2,10.3,32.0,73,0,13.87,clear sky,0,0
496,Ballina,IE,2019-11-04 08:05:06,54.11,-9.15,46.0,100,75,5.82,light rain,0,0
497,Maralal,KE,2019-11-04 08:05:06,1.1,36.7,79.38,36,20,10.22,few clouds,0,0
498,Aykhal,RU,2019-11-04 08:05:06,65.95,111.51,-9.41,76,75,4.47,broken clouds,0,0
499,Rocha,UY,2019-11-04 08:05:06,-34.48,-54.34,52.3,96,57,5.17,broken clouds,0,0
500,Namatanai,PG,2019-11-04 08:05:07,-3.66,152.44,82.27,77,100,7.96,moderate rain,5.25,0
501,Sorland,NO,2019-11-04 08:05:07,67.67,12.69,39.2,64,40,14.99,shower rain,0,0
502,Kuzino,RU,2019-11-04 08:05:07,57.02,59.44,27.45,81,100,10.87,overcast clouds,0,0
503,Broome,GB,2019-11-04 08:05:07,52.47,1.45,48.0,100,40,3.36,light intensity drizzle rain,0,0
504,Ixtapa,MX,2019-11-04 08:05:08,20.71,-105.21,79.0,88,5,3.36,clear sky,0,0
505,Agirish,RU,2019-11-04 08:05:08,61.92,63.02,24.37,80,100,14.23,overcast clouds,0,0
506,Palana,RU,2019-11-04 08:05:08,59.08,159.95,32.81,86,19,12.46,few clouds,0,0
507,Lethem,GY,2019-11-04 08:05:08,3.38,-59.8,78.03,73,50,11.18,scattered clouds,0,0
508,Kota Tinggi,MY,2019-11-04 08:05:08,1.73,103.9,91.0,66,75,4.7,broken clouds,0,0
509,Kodiak,US,2019-11-04 08:05:09,39.95,-94.76,48.99,70,1,5.82,clear sky,0,0
510,Xiuyan,CN,2019-11-04 08:05:09,40.29,123.27,45.0,32,0,3.69,clear sky,0,0
511,Bubaque,GW,2019-11-04 08:05:09,11.28,-15.83,83.26,74,70,7.92,broken clouds,0,0
512,Coihaique,CL,2019-11-04 08:05:09,-45.58,-72.07,39.2,93,90,2.24,light rain,0,0
513,Guryevsk,RU,2019-11-04 08:05:09,54.28,85.93,31.55,46,100,5.57,overcast clouds,0,0
514,Coruripe,BR,2019-11-04 08:05:10,-10.12,-36.18,77.94,78,100,14.43,light rain,0.19,0
515,Sabang,PH,2019-11-04 08:05:10,13.8,121.11,84.99,83,52,3.0,broken clouds,0,0
516,Samfya,ZM,2019-11-04 08:05:10,-11.37,29.56,93.49,20,0,8.5,clear sky,0,0
517,Kununurra,AU,2019-11-04 08:05:11,-15.77,128.74,89.6,46,75,18.34,broken clouds,0,0
518,Cairns,AU,2019-11-04 08:02:56,-16.92,145.77,80.6,65,89,10.29,overcast clouds,0,0
519,Burnie,AU,2019-11-04 08:05:11,-41.05,145.91,52.0,53,37,8.01,scattered clouds,0,0
520,Neryungri,RU,2019-11-04 08:05:11,56.66,124.71,9.68,94,100,11.52,snow,0,2.19
521,Smolensk,RU,2019-11-04 08:05:11,54.79,32.05,51.46,88,100,13.27,overcast clouds,0,0
522,Saint-Pie,CA,2019-11-04 08:05:12,45.5,-72.91,37.4,94,90,12.75,overcast clouds,0,0
523,Chalisgaon,IN,2019-11-04 08:05:12,20.46,75.0,85.55,53,84,6.46,broken clouds,0,0
524,Calvinia,ZA,2019-11-04 08:05:12,-31.47,19.78,75.2,31,0,16.11,clear sky,0,0
525,Matara,BI,2019-11-04 08:05:12,-3.48,29.48,80.6,61,20,8.23,few clouds,0,0
526,Coquimbo,CL,2019-11-04 08:05:13,-29.95,-71.34,57.2,76,58,3.36,broken clouds,0,0
527,Tarakan,ID,2019-11-04 08:05:13,3.3,117.63,83.64,71,100,5.17,overcast clouds,0,0
528,Kysyl-Syr,RU,2019-11-04 08:05:13,63.9,122.77,6.85,96,99,4.61,overcast clouds,0,0
529,Ergani,TR,2019-11-04 08:05:14,38.27,39.76,59.0,50,20,3.36,few clouds,0,0
530,Iquique,CL,2019-11-04 08:05:14,-20.22,-70.14,64.4,72,90,4.7,overcast clouds,0,0
531,Tromso,NO,2019-11-04 08:05:15,69.65,18.96,30.2,92,75,9.17,broken clouds,0,0
532,Qinhuangdao,CN,2019-11-04 08:05:15,39.94,119.59,48.94,40,0,3.89,clear sky,0,0
533,Cam Ranh,VN,2019-11-04 08:05:15,11.92,109.15,82.4,83,75,4.7,broken clouds,0,0
534,Shimanovsk,RU,2019-11-04 08:05:15,52.0,127.67,25.25,88,100,10.09,overcast clouds,0,0
535,Kologriv,RU,2019-11-04 08:05:16,58.83,44.31,37.31,97,100,11.45,moderate rain,3.31,0
536,Llandrindod Wells,GB,2019-11-04 08:05:16,52.24,-3.38,46.99,96,63,3.65,light rain,0.38,0
